<?xml version="1.0" encoding="UTF-8"?>
<kml xmlns="http://www.opengis.net/kml/2.2">
<Document>
  <name>Airports Map</name>
  <Placemark>
    <name>BIKF</name>
    <Style>
      <IconStyle>
        <color>ff0000ff</color>
      </IconStyle>
    </Style>
    <Point>
      <coordinates>-22.605555555555558,63.985,0</coordinates>
    </Point>
  </Placemark>
  <Placemark>
    <name>EBAW</name>
    <Style>
      <IconStyle>
        <color>ff0000ff</color>
      </IconStyle>
    </Style>
    <Point>
      <coordinates>4.460277777777778,51.18944444444444,0</coordinates>
    </Point>
  </Placemark>
  <Placemark>
    <name>EBBR</name>
    <Style>
      <IconStyle>
        <color>ff0000ff</color>
      </IconStyle>
    </Style>
    <Point>
      <coordinates>4.484444444444445,50.90138888888889,0</coordinates>
    </Point>
  </Placemark>
  <Placemark>
    <name>EBLG</name>
    <Style>
      <IconStyle>
        <color>ff0000ff</color>
      </IconStyle>
    </Style>
    <Point>
      <coordinates>5.442777777777778,50.63638888888889,0</coordinates>
    </Point>
  </Placemark>
  <Placemark>
    <name>EBOS</name>
    <Style>
      <IconStyle>
        <color>ff0000ff</color>
      </IconStyle>
    </Style>
    <Point>
      <coordinates>2.8622222222222224,51.19888888888889,0</coordinates>
    </Point>
  </Placemark>
  <Placemark>
    <name>EDDB</name>
    <Style>
      <IconStyle>
        <color>ff0000ff</color>
      </IconStyle>
    </Style>
    <Point>
      <coordinates>13.500555555555556,52.36222222222222,0</coordinates>
    </Point>
  </Placemark>
  <Placemark>
    <name>EDDF</name>
    <Style>
      <IconStyle>
        <color>ff0000ff</color>
      </IconStyle>
    </Style>
    <Point>
      <coordinates>8.570555555555556,50.03333333333333,0</coordinates>
    </Point>
  </Placemark>
  <Placemark>
    <name>EDDH</name>
    <Style>
      <IconStyle>
        <color>ff0000ff</color>
      </IconStyle>
    </Style>
    <Point>
      <coordinates>9.988333333333333,53.63027777777778,0</coordinates>
    </Point>
  </Placemark>
  <Placemark>
    <name>EDDK</name>
    <Style>
      <IconStyle>
        <color>ff0000ff</color>
      </IconStyle>
    </Style>
    <Point>
      <coordinates>7.142777777777778,50.865833333333335,0</coordinates>
    </Point>
  </Placemark>
  <Placemark>
    <name>EDDL</name>
    <Style>
      <IconStyle>
        <color>ff0000ff</color>
      </IconStyle>
    </Style>
    <Point>
      <coordinates>6.7572222222222225,51.280833333333334,0</coordinates>
    </Point>
  </Placemark>
  <Placemark>
    <name>EDDM</name>
    <Style>
      <IconStyle>
        <color>ff0000ff</color>
      </IconStyle>
    </Style>
    <Point>
      <coordinates>11.786111111111111,48.35388888888889,0</coordinates>
    </Point>
  </Placemark>
  <Placemark>
    <name>EDDN</name>
    <Style>
      <IconStyle>
        <color>ff0000ff</color>
      </IconStyle>
    </Style>
    <Point>
      <coordinates>11.078055555555554,49.49861111111111,0</coordinates>
    </Point>
  </Placemark>
  <Placemark>
    <name>EDDP</name>
    <Style>
      <IconStyle>
        <color>ff0000ff</color>
      </IconStyle>
    </Style>
    <Point>
      <coordinates>12.236388888888888,51.42388888888889,0</coordinates>
    </Point>
  </Placemark>
  <Placemark>
    <name>EDDS</name>
    <Style>
      <IconStyle>
        <color>ff0000ff</color>
      </IconStyle>
    </Style>
    <Point>
      <coordinates>9.221944444444444,48.69,0</coordinates>
    </Point>
  </Placemark>
  <Placemark>
    <name>EDDT</name>
    <Style>
      <IconStyle>
        <color>ff0000ff</color>
      </IconStyle>
    </Style>
    <Point>
      <coordinates>13.287777777777778,52.55972222222222,0</coordinates>
    </Point>
  </Placemark>
  <Placemark>
    <name>EDDV</name>
    <Style>
      <IconStyle>
        <color>ff0000ff</color>
      </IconStyle>
    </Style>
    <Point>
      <coordinates>9.68361111111111,52.46027777777778,0</coordinates>
    </Point>
  </Placemark>
  <Placemark>
    <name>EETN</name>
    <Style>
      <IconStyle>
        <color>ff0000ff</color>
      </IconStyle>
    </Style>
    <Point>
      <coordinates>24.8325,59.413333333333334,0</coordinates>
    </Point>
  </Placemark>
  <Placemark>
    <name>EFHK</name>
    <Style>
      <IconStyle>
        <color>ff0000ff</color>
      </IconStyle>
    </Style>
    <Point>
      <coordinates>24.96333333333333,60.31722222222223,0</coordinates>
    </Point>
  </Placemark>
  <Placemark>
    <name>EHAM</name>
    <Style>
      <IconStyle>
        <color>ff0000ff</color>
      </IconStyle>
    </Style>
    <Point>
      <coordinates>4.764166666666667,52.308055555555555,0</coordinates>
    </Point>
  </Placemark>
  <Placemark>
    <name>EHEH</name>
    <Style>
      <IconStyle>
        <color>ff0000ff</color>
      </IconStyle>
    </Style>
    <Point>
      <coordinates>5.374444444444444,51.45,0</coordinates>
    </Point>
  </Placemark>
  <Placemark>
    <name>EHRD</name>
    <Style>
      <IconStyle>
        <color>ff0000ff</color>
      </IconStyle>
    </Style>
    <Point>
      <coordinates>4.437222222222222,51.956944444444446,0</coordinates>
    </Point>
  </Placemark>
  <Placemark>
    <name>EKBI</name>
    <Style>
      <IconStyle>
        <color>ff0000ff</color>
      </IconStyle>
    </Style>
    <Point>
      <coordinates>9.151666666666667,55.74027777777778,0</coordinates>
    </Point>
  </Placemark>
  <Placemark>
    <name>EKCH</name>
    <Style>
      <IconStyle>
        <color>ff0000ff</color>
      </IconStyle>
    </Style>
    <Point>
      <coordinates>12.65611111111111,55.61805555555556,0</coordinates>
    </Point>
  </Placemark>
  <Placemark>
    <name>ELLX</name>
    <Style>
      <IconStyle>
        <color>ff0000ff</color>
      </IconStyle>
    </Style>
    <Point>
      <coordinates>6.204444444444444,49.623333333333335,0</coordinates>
    </Point>
  </Placemark>
  <Placemark>
    <name>ENBR</name>
    <Style>
      <IconStyle>
        <color>ff0000ff</color>
      </IconStyle>
    </Style>
    <Point>
      <coordinates>5.218055555555556,60.29361111111111,0</coordinates>
    </Point>
  </Placemark>
  <Placemark>
    <name>ENGM</name>
    <Style>
      <IconStyle>
        <color>ff0000ff</color>
      </IconStyle>
    </Style>
    <Point>
      <coordinates>11.08388888888889,60.20277777777778,0</coordinates>
    </Point>
  </Placemark>
  <Placemark>
    <name>EPKK</name>
    <Style>
      <IconStyle>
        <color>ff0000ff</color>
      </IconStyle>
    </Style>
    <Point>
      <coordinates>19.784722222222225,50.07777777777778,0</coordinates>
    </Point>
  </Placemark>
  <Placemark>
    <name>EPKT</name>
    <Style>
      <IconStyle>
        <color>ff0000ff</color>
      </IconStyle>
    </Style>
    <Point>
      <coordinates>19.08,50.47416666666667,0</coordinates>
    </Point>
  </Placemark>
  <Placemark>
    <name>EPWA</name>
    <Style>
      <IconStyle>
        <color>ff0000ff</color>
      </IconStyle>
    </Style>
    <Point>
      <coordinates>20.96722222222222,52.16583333333333,0</coordinates>
    </Point>
  </Placemark>
  <Placemark>
    <name>ESGG</name>
    <Style>
      <IconStyle>
        <color>ff0000ff</color>
      </IconStyle>
    </Style>
    <Point>
      <coordinates>12.29111111111111,57.66,0</coordinates>
    </Point>
  </Placemark>
  <Placemark>
    <name>ESKN</name>
    <Style>
      <IconStyle>
        <color>ff0000ff</color>
      </IconStyle>
    </Style>
    <Point>
      <coordinates>16.90361111111111,58.78861111111111,0</coordinates>
    </Point>
  </Placemark>
  <Placemark>
    <name>ESSA</name>
    <Style>
      <IconStyle>
        <color>ff0000ff</color>
      </IconStyle>
    </Style>
    <Point>
      <coordinates>17.91861111111111,59.651944444444446,0</coordinates>
    </Point>
  </Placemark>
  <Placemark>
    <name>EVRA</name>
    <Style>
      <IconStyle>
        <color>ff0000ff</color>
      </IconStyle>
    </Style>
    <Point>
      <coordinates>23.97111111111111,56.92361111111111,0</coordinates>
    </Point>
  </Placemark>
  <Placemark>
    <name>EYVI</name>
    <Style>
      <IconStyle>
        <color>ff0000ff</color>
      </IconStyle>
    </Style>
    <Point>
      <coordinates>25.28777777777778,54.636944444444445,0</coordinates>
    </Point>
  </Placemark>
  <Placemark>
    <name>LCLK</name>
    <Style>
      <IconStyle>
        <color>ff0000ff</color>
      </IconStyle>
    </Style>
    <Point>
      <coordinates>33.63027777777778,34.87888888888889,0</coordinates>
    </Point>
  </Placemark>
  <Placemark>
    <name>LEAL</name>
    <Style>
      <IconStyle>
        <color>ff0000ff</color>
      </IconStyle>
    </Style>
    <Point>
      <coordinates>-0.5580555555555556,38.282222222222224,0</coordinates>
    </Point>
  </Placemark>
  <Placemark>
    <name>LEAM</name>
    <Style>
      <IconStyle>
        <color>ff0000ff</color>
      </IconStyle>
    </Style>
    <Point>
      <coordinates>-2.37,36.84388888888889,0</coordinates>
    </Point>
  </Placemark>
  <Placemark>
    <name>LEAS</name>
    <Style>
      <IconStyle>
        <color>ff0000ff</color>
      </IconStyle>
    </Style>
    <Point>
      <coordinates>-6.034722222222222,43.56361111111111,0</coordinates>
    </Point>
  </Placemark>
  <Placemark>
    <name>LEBB</name>
    <Style>
      <IconStyle>
        <color>ff0000ff</color>
      </IconStyle>
    </Style>
    <Point>
      <coordinates>-2.9105555555555553,43.301111111111105,0</coordinates>
    </Point>
  </Placemark>
  <Placemark>
    <name>LEBL</name>
    <Style>
      <IconStyle>
        <color>ff0000ff</color>
      </IconStyle>
    </Style>
    <Point>
      <coordinates>2.0783333333333336,41.29694444444444,0</coordinates>
    </Point>
  </Placemark>
  <Placemark>
    <name>LEBZ</name>
    <Style>
      <IconStyle>
        <color>ff0000ff</color>
      </IconStyle>
    </Style>
    <Point>
      <coordinates>-6.8213888888888885,38.89138888888889,0</coordinates>
    </Point>
  </Placemark>
  <Placemark>
    <name>LECO</name>
    <Style>
      <IconStyle>
        <color>ff0000ff</color>
      </IconStyle>
    </Style>
    <Point>
      <coordinates>-8.377222222222223,43.301944444444445,0</coordinates>
    </Point>
  </Placemark>
  <Placemark>
    <name>LEGE</name>
    <Style>
      <IconStyle>
        <color>ff0000ff</color>
      </IconStyle>
    </Style>
    <Point>
      <coordinates>2.7605555555555554,41.90083333333333,0</coordinates>
    </Point>
  </Placemark>
  <Placemark>
    <name>LEGR</name>
    <Style>
      <IconStyle>
        <color>ff0000ff</color>
      </IconStyle>
    </Style>
    <Point>
      <coordinates>-3.777222222222222,37.18861111111111,0</coordinates>
    </Point>
  </Placemark>
  <Placemark>
    <name>LEIB</name>
    <Style>
      <IconStyle>
        <color>ff0000ff</color>
      </IconStyle>
    </Style>
    <Point>
      <coordinates>1.3730555555555557,38.87277777777778,0</coordinates>
    </Point>
  </Placemark>
  <Placemark>
    <name>LEJR</name>
    <Style>
      <IconStyle>
        <color>ff0000ff</color>
      </IconStyle>
    </Style>
    <Point>
      <coordinates>-6.06,36.74472222222222,0</coordinates>
    </Point>
  </Placemark>
  <Placemark>
    <name>LELN</name>
    <Style>
      <IconStyle>
        <color>ff0000ff</color>
      </IconStyle>
    </Style>
    <Point>
      <coordinates>-5.6561111111111115,42.58861111111111,0</coordinates>
    </Point>
  </Placemark>
  <Placemark>
    <name>LEMD</name>
    <Style>
      <IconStyle>
        <color>ff0000ff</color>
      </IconStyle>
    </Style>
    <Point>
      <coordinates>-3.560833333333333,40.47222222222222,0</coordinates>
    </Point>
  </Placemark>
  <Placemark>
    <name>LEMG</name>
    <Style>
      <IconStyle>
        <color>ff0000ff</color>
      </IconStyle>
    </Style>
    <Point>
      <coordinates>-4.4991666666666665,36.675,0</coordinates>
    </Point>
  </Placemark>
  <Placemark>
    <name>LEMH</name>
    <Style>
      <IconStyle>
        <color>ff0000ff</color>
      </IconStyle>
    </Style>
    <Point>
      <coordinates>4.2186111111111115,39.862500000000004,0</coordinates>
    </Point>
  </Placemark>
  <Placemark>
    <name>LEPA</name>
    <Style>
      <IconStyle>
        <color>ff0000ff</color>
      </IconStyle>
    </Style>
    <Point>
      <coordinates>2.738888888888889,39.55166666666666,0</coordinates>
    </Point>
  </Placemark>
  <Placemark>
    <name>LESO</name>
    <Style>
      <IconStyle>
        <color>ff0000ff</color>
      </IconStyle>
    </Style>
    <Point>
      <coordinates>-1.7905555555555555,43.35638888888889,0</coordinates>
    </Point>
  </Placemark>
  <Placemark>
    <name>LEST</name>
    <Style>
      <IconStyle>
        <color>ff0000ff</color>
      </IconStyle>
    </Style>
    <Point>
      <coordinates>-8.415277777777778,42.896388888888886,0</coordinates>
    </Point>
  </Placemark>
  <Placemark>
    <name>LEVC</name>
    <Style>
      <IconStyle>
        <color>ff0000ff</color>
      </IconStyle>
    </Style>
    <Point>
      <coordinates>-0.4816666666666667,39.489444444444445,0</coordinates>
    </Point>
  </Placemark>
  <Placemark>
    <name>LEVD</name>
    <Style>
      <IconStyle>
        <color>ff0000ff</color>
      </IconStyle>
    </Style>
    <Point>
      <coordinates>-4.851944444444444,41.70611111111111,0</coordinates>
    </Point>
  </Placemark>
  <Placemark>
    <name>LEVX</name>
    <Style>
      <IconStyle>
        <color>ff0000ff</color>
      </IconStyle>
    </Style>
    <Point>
      <coordinates>-8.627500000000001,42.22916666666667,0</coordinates>
    </Point>
  </Placemark>
  <Placemark>
    <name>LEXJ</name>
    <Style>
      <IconStyle>
        <color>ff0000ff</color>
      </IconStyle>
    </Style>
    <Point>
      <coordinates>-3.82,43.426944444444445,0</coordinates>
    </Point>
  </Placemark>
  <Placemark>
    <name>LEZL</name>
    <Style>
      <IconStyle>
        <color>ff0000ff</color>
      </IconStyle>
    </Style>
    <Point>
      <coordinates>-5.898888888888888,37.418055555555554,0</coordinates>
    </Point>
  </Placemark>
  <Placemark>
    <name>LFBD</name>
    <Style>
      <IconStyle>
        <color>ff0000ff</color>
      </IconStyle>
    </Style>
    <Point>
      <coordinates>-0.7152777777777777,44.828611111111115,0</coordinates>
    </Point>
  </Placemark>
  <Placemark>
    <name>LFBT</name>
    <Style>
      <IconStyle>
        <color>ff0000ff</color>
      </IconStyle>
    </Style>
    <Point>
      <coordinates>-0.002777777777777778,43.18555555555555,0</coordinates>
    </Point>
  </Placemark>
  <Placemark>
    <name>LFCK</name>
    <Style>
      <IconStyle>
        <color>ff0000ff</color>
      </IconStyle>
    </Style>
    <Point>
      <coordinates>2.2905555555555552,43.555,0</coordinates>
    </Point>
  </Placemark>
  <Placemark>
    <name>LFLL</name>
    <Style>
      <IconStyle>
        <color>ff0000ff</color>
      </IconStyle>
    </Style>
    <Point>
      <coordinates>5.0811111111111105,45.72555555555556,0</coordinates>
    </Point>
  </Placemark>
  <Placemark>
    <name>LFMD</name>
    <Style>
      <IconStyle>
        <color>ff0000ff</color>
      </IconStyle>
    </Style>
    <Point>
      <coordinates>6.954166666666667,43.546388888888885,0</coordinates>
    </Point>
  </Placemark>
  <Placemark>
    <name>LFML</name>
    <Style>
      <IconStyle>
        <color>ff0000ff</color>
      </IconStyle>
    </Style>
    <Point>
      <coordinates>5.215,43.43666666666666,0</coordinates>
    </Point>
  </Placemark>
  <Placemark>
    <name>LFMN</name>
    <Style>
      <IconStyle>
        <color>ff0000ff</color>
      </IconStyle>
    </Style>
    <Point>
      <coordinates>7.215,43.665277777777774,0</coordinates>
    </Point>
  </Placemark>
  <Placemark>
    <name>LFOB</name>
    <Style>
      <IconStyle>
        <color>ff0000ff</color>
      </IconStyle>
    </Style>
    <Point>
      <coordinates>2.112777777777778,49.45444444444445,0</coordinates>
    </Point>
  </Placemark>
  <Placemark>
    <name>LFPG</name>
    <Style>
      <IconStyle>
        <color>ff0000ff</color>
      </IconStyle>
    </Style>
    <Point>
      <coordinates>2.5477777777777777,49.00972222222222,0</coordinates>
    </Point>
  </Placemark>
  <Placemark>
    <name>LFPO</name>
    <Style>
      <IconStyle>
        <color>ff0000ff</color>
      </IconStyle>
    </Style>
    <Point>
      <coordinates>2.3794444444444447,48.723333333333336,0</coordinates>
    </Point>
  </Placemark>
  <Placemark>
    <name>LFQQ</name>
    <Style>
      <IconStyle>
        <color>ff0000ff</color>
      </IconStyle>
    </Style>
    <Point>
      <coordinates>3.0869444444444447,50.56333333333333,0</coordinates>
    </Point>
  </Placemark>
  <Placemark>
    <name>LFRN</name>
    <Style>
      <IconStyle>
        <color>ff0000ff</color>
      </IconStyle>
    </Style>
    <Point>
      <coordinates>-1.7322222222222223,48.07194444444445,0</coordinates>
    </Point>
  </Placemark>
  <Placemark>
    <name>LFRS</name>
    <Style>
      <IconStyle>
        <color>ff0000ff</color>
      </IconStyle>
    </Style>
    <Point>
      <coordinates>-1.607777777777778,47.15694444444444,0</coordinates>
    </Point>
  </Placemark>
  <Placemark>
    <name>LFSB</name>
    <Style>
      <IconStyle>
        <color>ff0000ff</color>
      </IconStyle>
    </Style>
    <Point>
      <coordinates>7.529166666666667,47.59,0</coordinates>
    </Point>
  </Placemark>
  <Placemark>
    <name>LFST</name>
    <Style>
      <IconStyle>
        <color>ff0000ff</color>
      </IconStyle>
    </Style>
    <Point>
      <coordinates>7.634444444444444,48.54194444444444,0</coordinates>
    </Point>
  </Placemark>
  <Placemark>
    <name>LGAV</name>
    <Style>
      <IconStyle>
        <color>ff0000ff</color>
      </IconStyle>
    </Style>
    <Point>
      <coordinates>23.944444444444446,37.93666666666666,0</coordinates>
    </Point>
  </Placemark>
  <Placemark>
    <name>LGIR</name>
    <Style>
      <IconStyle>
        <color>ff0000ff</color>
      </IconStyle>
    </Style>
    <Point>
      <coordinates>25.18027777777778,35.33972222222222,0</coordinates>
    </Point>
  </Placemark>
  <Placemark>
    <name>LGKR</name>
    <Style>
      <IconStyle>
        <color>ff0000ff</color>
      </IconStyle>
    </Style>
    <Point>
      <coordinates>19.91222222222222,39.60194444444445,0</coordinates>
    </Point>
  </Placemark>
  <Placemark>
    <name>LGMK</name>
    <Style>
      <IconStyle>
        <color>ff0000ff</color>
      </IconStyle>
    </Style>
    <Point>
      <coordinates>25.34722222222222,37.43722222222222,0</coordinates>
    </Point>
  </Placemark>
  <Placemark>
    <name>LGSR</name>
    <Style>
      <IconStyle>
        <color>ff0000ff</color>
      </IconStyle>
    </Style>
    <Point>
      <coordinates>25.479166666666664,36.399166666666666,0</coordinates>
    </Point>
  </Placemark>
  <Placemark>
    <name>LGTS</name>
    <Style>
      <IconStyle>
        <color>ff0000ff</color>
      </IconStyle>
    </Style>
    <Point>
      <coordinates>22.97083333333333,40.51972222222222,0</coordinates>
    </Point>
  </Placemark>
  <Placemark>
    <name>LHBP</name>
    <Style>
      <IconStyle>
        <color>ff0000ff</color>
      </IconStyle>
    </Style>
    <Point>
      <coordinates>19.261944444444445,47.43944444444444,0</coordinates>
    </Point>
  </Placemark>
  <Placemark>
    <name>LIBD</name>
    <Style>
      <IconStyle>
        <color>ff0000ff</color>
      </IconStyle>
    </Style>
    <Point>
      <coordinates>16.765,41.13805555555555,0</coordinates>
    </Point>
  </Placemark>
  <Placemark>
    <name>LICJ</name>
    <Style>
      <IconStyle>
        <color>ff0000ff</color>
      </IconStyle>
    </Style>
    <Point>
      <coordinates>13.099444444444446,38.18194444444444,0</coordinates>
    </Point>
  </Placemark>
  <Placemark>
    <name>LIEE</name>
    <Style>
      <IconStyle>
        <color>ff0000ff</color>
      </IconStyle>
    </Style>
    <Point>
      <coordinates>9.056111111111111,39.24722222222222,0</coordinates>
    </Point>
  </Placemark>
  <Placemark>
    <name>LIEO</name>
    <Style>
      <IconStyle>
        <color>ff0000ff</color>
      </IconStyle>
    </Style>
    <Point>
      <coordinates>9.517777777777779,40.89861111111111,0</coordinates>
    </Point>
  </Placemark>
  <Placemark>
    <name>LIMC</name>
    <Style>
      <IconStyle>
        <color>ff0000ff</color>
      </IconStyle>
    </Style>
    <Point>
      <coordinates>8.723055555555556,45.63,0</coordinates>
    </Point>
  </Placemark>
  <Placemark>
    <name>LIME</name>
    <Style>
      <IconStyle>
        <color>ff0000ff</color>
      </IconStyle>
    </Style>
    <Point>
      <coordinates>9.700277777777776,45.66888888888889,0</coordinates>
    </Point>
  </Placemark>
  <Placemark>
    <name>LIMF</name>
    <Style>
      <IconStyle>
        <color>ff0000ff</color>
      </IconStyle>
    </Style>
    <Point>
      <coordinates>7.649444444444444,45.2025,0</coordinates>
    </Point>
  </Placemark>
  <Placemark>
    <name>LIML</name>
    <Style>
      <IconStyle>
        <color>ff0000ff</color>
      </IconStyle>
    </Style>
    <Point>
      <coordinates>9.278333333333334,45.44944444444444,0</coordinates>
    </Point>
  </Placemark>
  <Placemark>
    <name>LIPE</name>
    <Style>
      <IconStyle>
        <color>ff0000ff</color>
      </IconStyle>
    </Style>
    <Point>
      <coordinates>11.296944444444444,44.530833333333334,0</coordinates>
    </Point>
  </Placemark>
  <Placemark>
    <name>LIPH</name>
    <Style>
      <IconStyle>
        <color>ff0000ff</color>
      </IconStyle>
    </Style>
    <Point>
      <coordinates>12.197777777777778,45.65083333333333,0</coordinates>
    </Point>
  </Placemark>
  <Placemark>
    <name>LIPX</name>
    <Style>
      <IconStyle>
        <color>ff0000ff</color>
      </IconStyle>
    </Style>
    <Point>
      <coordinates>10.887777777777778,45.396388888888886,0</coordinates>
    </Point>
  </Placemark>
  <Placemark>
    <name>LIPZ</name>
    <Style>
      <IconStyle>
        <color>ff0000ff</color>
      </IconStyle>
    </Style>
    <Point>
      <coordinates>12.351944444444444,45.50527777777778,0</coordinates>
    </Point>
  </Placemark>
  <Placemark>
    <name>LIRF</name>
    <Style>
      <IconStyle>
        <color>ff0000ff</color>
      </IconStyle>
    </Style>
    <Point>
      <coordinates>12.238888888888889,41.80027777777777,0</coordinates>
    </Point>
  </Placemark>
  <Placemark>
    <name>LIRN</name>
    <Style>
      <IconStyle>
        <color>ff0000ff</color>
      </IconStyle>
    </Style>
    <Point>
      <coordinates>14.290833333333333,40.88444444444444,0</coordinates>
    </Point>
  </Placemark>
  <Placemark>
    <name>LIRP</name>
    <Style>
      <IconStyle>
        <color>ff0000ff</color>
      </IconStyle>
    </Style>
    <Point>
      <coordinates>10.395555555555555,43.68277777777777,0</coordinates>
    </Point>
  </Placemark>
  <Placemark>
    <name>LIRQ</name>
    <Style>
      <IconStyle>
        <color>ff0000ff</color>
      </IconStyle>
    </Style>
    <Point>
      <coordinates>11.202777777777778,43.808611111111105,0</coordinates>
    </Point>
  </Placemark>
  <Placemark>
    <name>LKPR</name>
    <Style>
      <IconStyle>
        <color>ff0000ff</color>
      </IconStyle>
    </Style>
    <Point>
      <coordinates>14.26,50.100833333333334,0</coordinates>
    </Point>
  </Placemark>
  <Placemark>
    <name>LMML</name>
    <Style>
      <IconStyle>
        <color>ff0000ff</color>
      </IconStyle>
    </Style>
    <Point>
      <coordinates>14.477500000000001,35.8575,0</coordinates>
    </Point>
  </Placemark>
  <Placemark>
    <name>LOWW</name>
    <Style>
      <IconStyle>
        <color>ff0000ff</color>
      </IconStyle>
    </Style>
    <Point>
      <coordinates>16.56972222222222,48.11027777777778,0</coordinates>
    </Point>
  </Placemark>
  <Placemark>
    <name>LPPR</name>
    <Style>
      <IconStyle>
        <color>ff0000ff</color>
      </IconStyle>
    </Style>
    <Point>
      <coordinates>-8.678055555555554,41.23555555555556,0</coordinates>
    </Point>
  </Placemark>
  <Placemark>
    <name>LPPT</name>
    <Style>
      <IconStyle>
        <color>ff0000ff</color>
      </IconStyle>
    </Style>
    <Point>
      <coordinates>-9.134166666666665,38.774166666666666,0</coordinates>
    </Point>
  </Placemark>
  <Placemark>
    <name>LSGG</name>
    <Style>
      <IconStyle>
        <color>ff0000ff</color>
      </IconStyle>
    </Style>
    <Point>
      <coordinates>6.109444444444444,46.23833333333334,0</coordinates>
    </Point>
  </Placemark>
  <Placemark>
    <name>LSZG</name>
    <Style>
      <IconStyle>
        <color>ff0000ff</color>
      </IconStyle>
    </Style>
    <Point>
      <coordinates>7.416388888888889,47.18138888888889,0</coordinates>
    </Point>
  </Placemark>
  <Placemark>
    <name>LSZH</name>
    <Style>
      <IconStyle>
        <color>ff0000ff</color>
      </IconStyle>
    </Style>
    <Point>
      <coordinates>8.548055555555555,47.45805555555556,0</coordinates>
    </Point>
  </Placemark>
</Document>
</kml>
